%time,field.position.x,field.position.y,field.position.z,field.orientation.x,field.orientation.y,field.orientation.z,field.orientation.w
1457888162125936214,0.16726218164,0.266248762608,0.0,0.0,0.0,0.0,0.0
1457888162125957299,0.140720367432,-0.133963942528,0.0,0.0,0.0,0.0,0.0
1457888162127867887,0.322700560093,0.65572655201,0.0,0.0,0.0,0.0,0.0
1457888162129855954,0.0470658838749,0.199854671955,0.0,0.0,0.0,0.0,0.0
1457888162131956385,0.0413106009364,0.0522598624229,0.0,0.0,0.0,0.0,0.0
1457888162133969311,0.0429948717356,-0.0202804617584,0.0,0.0,0.0,0.0,0.0
1457888162135892682,0.128671169281,0.724519610405,0.0,0.0,0.0,0.0,0.0
1457888162137865269,0.0140101239085,0.257018923759,0.0,0.0,0.0,0.0,0.0
1457888162139899629,0.0146827297285,0.0963073968887,0.0,0.0,0.0,0.0,0.0
1457888162141879723,0.267551511526,1.05620384216,0.0,0.0,0.0,0.0,0.0
1457888162143895461,0.482018947601,1.37752246857,0.0,0.0,0.0,0.0,0.0
1457888162145932163,0.696574270725,1.44069898129,0.0,0.0,0.0,0.0,0.0
1457888162147913545,0.991886615753,1.3571614027,0.0,0.0,0.0,0.0,0.0
1457888162149921074,1.14653909206,1.27101802826,0.0,0.0,0.0,0.0,0.0
1457888162151932194,1.17129743099,1.2429639101,0.0,0.0,0.0,0.0,0.0
1457888162153918300,1.18012320995,1.22984337807,0.0,0.0,0.0,0.0,0.0
1457888162155959648,1.18486142159,1.22292208672,0.0,0.0,0.0,0.0,0.0
1457888162157934384,1.18768501282,1.21907019615,0.0,0.0,0.0,0.0,0.0
1457888162159910793,1.18940138817,1.21686017513,0.0,0.0,0.0,0.0,0.0
1457888162161897504,1.19044649601,1.21556818485,0.0,0.0,0.0,0.0,0.0
1457888162163825254,1.19108200073,1.21480369568,0.0,0.0,0.0,0.0,0.0
1457888162165875897,1.19400978088,1.21205914021,0.0,0.0,0.0,0.0,0.0
1457888162167912408,1.19573450089,1.21031832695,0.0,0.0,0.0,0.0,0.0
1457888162169900586,1.19675695896,1.20923304558,0.0,0.0,0.0,0.0,0.0
1457888162171859906,1.19736754894,1.20856308937,0.0,0.0,0.0,0.0,0.0
1457888162173888857,1.19773423672,1.20815217495,0.0,0.0,0.0,0.0,0.0
1457888162175963541,1.19795525074,1.20790112019,0.0,0.0,0.0,0.0,0.0
1457888162177939317,1.19808876514,1.20774805546,0.0,0.0,0.0,0.0,0.0
1457888162179863380,1.19816958904,1.207654953,0.0,0.0,0.0,0.0,0.0
1457888162181885602,1.19821846485,1.20759832859,0.0,0.0,0.0,0.0,0.0
1457888162183917109,1.19824814796,1.20756387711,0.0,0.0,0.0,0.0,0.0
1457888162185904978,1.19952368736,1.20640456676,0.0,0.0,0.0,0.0,0.0
1457888162187911898,1.20027589798,1.20565593243,0.0,0.0,0.0,0.0,0.0
1457888162189899508,1.20072305202,1.20518362522,0.0,0.0,0.0,0.0,0.0
1457888162191889391,1.20099067688,1.20488989353,0.0,0.0,0.0,0.0,0.0
1457888162193894239,1.20115172863,1.20470869541,0.0,0.0,0.0,0.0,0.0
1457888162195889460,1.20124900341,1.20459759235,0.0,0.0,0.0,0.0,0.0
1457888162197887663,1.2013078928,1.20452964306,0.0,0.0,0.0,0.0,0.0
1457888162199891103,1.20134353638,1.20448827744,0.0,0.0,0.0,0.0,0.0
1457888162201995972,1.20136511326,1.20446300507,0.0,0.0,0.0,0.0,0.0
1457888162203917829,1.20519006252,1.20933818817,0.0,0.0,0.0,0.0,0.0
1457888162205877218,1.20687651634,1.21101903915,0.0,0.0,0.0,0.0,0.0
1457888162207915166,1.20765471458,1.21153700352,0.0,0.0,0.0,0.0,0.0
1457888162209881908,1.20803201199,1.21165394783,0.0,0.0,0.0,0.0,0.0
1457888162211846572,1.20822417736,1.21164727211,0.0,0.0,0.0,0.0,0.0
1457888162213908047,1.20832657814,1.21161258221,0.0,0.0,0.0,0.0,0.0
1457888162215887942,1.20838332176,1.21157944202,0.0,0.0,0.0,0.0,0.0
1457888162217895670,1.20841562748,1.21155452728,0.0,0.0,0.0,0.0,0.0
1457888162219898327,1.20843446255,1.21153748035,0.0,0.0,0.0,0.0,0.0
1457888162221862433,1.20844566822,1.21152627468,0.0,0.0,0.0,0.0,0.0
1457888162223852668,1.20845234394,1.21151924133,0.0,0.0,0.0,0.0,0.0
1457888162225887010,1.20720613003,1.21264541149,0.0,0.0,0.0,0.0,0.0
1457888162227944610,1.20646572113,1.21338117123,0.0,0.0,0.0,0.0,0.0
1457888162229881489,1.20602154732,1.21384930611,0.0,0.0,0.0,0.0,0.0
1457888162231890791,1.20575356483,1.21414232254,0.0,0.0,0.0,0.0,0.0
1457888162233859959,1.20559132099,1.2143239975,0.0,0.0,0.0,0.0,0.0
1457888162235859023,1.20169568062,1.2095335722,0.0,0.0,0.0,0.0,0.0
1457888162237900724,1.19995343685,1.2079154253,0.0,0.0,0.0,0.0,0.0
1457888162239845699,1.19914209843,1.20743560791,0.0,0.0,0.0,0.0,0.0
1457888162241872604,1.19874644279,1.20734012127,0.0,0.0,0.0,0.0,0.0
1457888162243837485,1.19854414463,1.2073584795,0.0,0.0,0.0,0.0,0.0
1457888162245829363,1.19592237473,1.20967543125,0.0,0.0,0.0,0.0,0.0
1457888162247925053,1.19437503815,1.21118223667,0.0,0.0,0.0,0.0,0.0
1457888162249873717,1.19345211983,1.21213531494,0.0,0.0,0.0,0.0,0.0
1457888162251867440,1.19289886951,1.21272790432,0.0,0.0,0.0,0.0,0.0
1457888162253864129,1.1925662756,1.21309256554,0.0,0.0,0.0,0.0,0.0
1457888162255846533,1.19236588478,1.21331560612,0.0,0.0,0.0,0.0,0.0
1457888162257882713,1.19224500656,1.2134513855,0.0,0.0,0.0,0.0,0.0
1457888162259849713,1.19217205048,1.21353387833,0.0,0.0,0.0,0.0,0.0
1457888162261922163,1.19212806225,1.21358394623,0.0,0.0,0.0,0.0,0.0
1457888162263837301,1.19210135937,1.21361422539,0.0,0.0,0.0,0.0,0.0
1457888162265883850,1.20103335381,1.23053812981,0.0,0.0,0.0,0.0,0.0
1457888162267884855,1.20448362827,1.23713123798,0.0,0.0,0.0,0.0,0.0
1457888162269881534,1.20583021641,1.23969221115,0.0,0.0,0.0,0.0,0.0
1457888162271888325,1.20635974407,1.24068403244,0.0,0.0,0.0,0.0,0.0
1457888162273887663,1.20656943321,1.24106657505,0.0,0.0,0.0,0.0,0.0
1457888162275855345,1.20665335655,1.24121320248,0.0,0.0,0.0,0.0,0.0
1457888162277934573,1.20668745041,1.24126887321,0.0,0.0,0.0,0.0,0.0
1457888162279874991,1.20670151711,1.24128961563,0.0,0.0,0.0,0.0,0.0
1457888162281852728,1.20670759678,1.24129712582,0.0,0.0,0.0,0.0,0.0
1457888162283841204,1.20671021938,1.24129974842,0.0,0.0,0.0,0.0,0.0
1457888162285894106,1.20671141148,1.24130058289,0.0,0.0,0.0,0.0,0.0
1457888162287833665,1.20543861389,1.2424325943,0.0,0.0,0.0,0.0,0.0
1457888162289853489,1.20467889309,1.24316906929,0.0,0.0,0.0,0.0,0.0
1457888162291849757,1.20422124863,1.24363684654,0.0,0.0,0.0,0.0,0.0
1457888162293888005,1.20394420624,1.24392962456,0.0,0.0,0.0,0.0,0.0
1457888162295851327,1.20377588272,1.24411118031,0.0,0.0,0.0,0.0,0.0
1457888162297901482,1.20367348194,1.24422323704,0.0,0.0,0.0,0.0,0.0
1457888162299888690,1.20361101627,1.24429214001,0.0,0.0,0.0,0.0,0.0
1457888162301872600,1.2035728693,1.2443343401,0.0,0.0,0.0,0.0,0.0
1457888162303837352,1.20354962349,1.24436032772,0.0,0.0,0.0,0.0,0.0
1457888162305928632,1.20353531837,1.24437618256,0.0,0.0,0.0,0.0,0.0
1457888162307883378,1.19969046116,1.24778842926,0.0,0.0,0.0,0.0,0.0
1457888162309873445,1.1973927021,1.24999821186,0.0,0.0,0.0,0.0,0.0
1457888162311936156,1.19600534439,1.2513961792,0.0,0.0,0.0,0.0,0.0
1457888162313887456,1.19516503811,1.25226736069,0.0,0.0,0.0,0.0,0.0
1457888162315884278,1.19465529919,1.252805233,0.0,0.0,0.0,0.0,0.0
1457888162317883107,1.19434583187,1.25313556194,0.0,0.0,0.0,0.0,0.0
1457888162319885644,1.19415783882,1.25333762169,0.0,0.0,0.0,0.0,0.0
1457888162321882371,1.19404363632,1.2534610033,0.0,0.0,0.0,0.0,0.0
1457888162323881144,1.19397413731,1.25353622437,0.0,0.0,0.0,0.0,0.0
1457888162325928582,1.19393193722,1.25358200073,0.0,0.0,0.0,0.0,0.0
1457888162327871933,1.19511973858,1.26078045368,0.0,0.0,0.0,0.0,0.0
1457888162329886242,1.19519400597,1.26398181915,0.0,0.0,0.0,0.0,0.0
1457888162331904155,1.19498729706,1.26547396183,0.0,0.0,0.0,0.0,0.0
1457888162333865906,1.19476366043,1.26620578766,0.0,0.0,0.0,0.0,0.0
1457888162335860033,1.19458949566,1.26658308506,0.0,0.0,0.0,0.0,0.0
1457888162337896889,1.19446873665,1.26678645611,0.0,0.0,0.0,0.0,0.0
1457888162339861121,1.19438946247,1.26690006256,0.0,0.0,0.0,0.0,0.0
1457888162341870978,1.19433891773,1.26696527004,0.0,0.0,0.0,0.0,0.0
1457888162343859703,1.19430720806,1.26700341702,0.0,0.0,0.0,0.0,0.0
1457888162345872196,1.19428765774,1.26702606678,0.0,0.0,0.0,0.0,0.0
1457888162347844451,1.19427549839,1.26703965664,0.0,0.0,0.0,0.0,0.0
1457888162349891675,1.19296371937,1.26818847656,0.0,0.0,0.0,0.0,0.0
1457888162351868489,1.19218146801,1.26892471313,0.0,0.0,0.0,0.0,0.0
1457888162353817260,1.19171130657,1.26938712597,0.0,0.0,0.0,0.0,0.0
1457888162355854378,1.19142758846,1.26967418194,0.0,0.0,0.0,0.0,0.0
1457888162357907347,1.19125580788,1.26985096931,0.0,0.0,0.0,0.0,0.0
1457888162359874635,1.19495248795,1.27484762669,0.0,0.0,0.0,0.0,0.0
1457888162361899013,1.1965110302,1.27664685249,0.0,0.0,0.0,0.0,0.0
1457888162363807190,1.19719433784,1.2772591114,0.0,0.0,0.0,0.0,0.0
1457888162365873053,1.19750797749,1.27744424343,0.0,0.0,0.0,0.0,0.0
1457888162367888824,1.19765949249,1.27748405933,0.0,0.0,0.0,0.0,0.0
1457888162369855206,1.19642806053,1.2786179781,0.0,0.0,0.0,0.0,0.0
1457888162371873764,1.19568657875,1.27933621407,0.0,0.0,0.0,0.0,0.0
1457888162373831641,1.19523751736,1.27978503704,0.0,0.0,0.0,0.0,0.0
1457888162375880094,1.19496488571,1.2800630331,0.0,0.0,0.0,0.0,0.0
1457888162377902456,1.19479894638,1.28023421764,0.0,0.0,0.0,0.0,0.0
1457888162379865094,1.19469797611,1.28033924103,0.0,0.0,0.0,0.0,0.0
1457888162381861121,1.19463634491,1.28040361404,0.0,0.0,0.0,0.0,0.0
1457888162383894789,1.19459879398,1.28044295311,0.0,0.0,0.0,0.0,0.0
1457888162385993740,1.1945759058,1.28046703339,0.0,0.0,0.0,0.0,0.0
1457888162387914358,1.19456195831,1.28048169613,0.0,0.0,0.0,0.0,0.0
1457888162389941820,1.19455349445,1.28049063683,0.0,0.0,0.0,0.0,0.0
1457888162391875609,1.19833660126,1.28539383411,0.0,0.0,0.0,0.0,0.0
1457888162393911794,1.19994962215,1.28713524342,0.0,0.0,0.0,0.0,0.0
1457888162395826775,1.20066726208,1.28771173954,0.0,0.0,0.0,0.0,0.0
1457888162397895782,1.2010024786,1.28787446022,0.0,0.0,0.0,0.0,0.0
1457888162399872448,1.20116758347,1.28790032864,0.0,0.0,0.0,0.0,0.0
1457888162401820139,1.20125317574,1.28788757324,0.0,0.0,0.0,0.0,0.0
1457888162403871216,1.20129954815,1.28786861897,0.0,0.0,0.0,0.0,0.0
1457888162405868427,1.20132565498,1.28785264492,0.0,0.0,0.0,0.0,0.0
1457888162407868641,1.20134067535,1.28784120083,0.0,0.0,0.0,0.0,0.0
1457888162409892897,1.20134961605,1.28783357143,0.0,0.0,0.0,0.0,0.0
1457888162411835882,1.19873118401,1.29009902477,0.0,0.0,0.0,0.0,0.0
1457888162413883812,1.1971578598,1.29156005383,0.0,0.0,0.0,0.0,0.0
1457888162415857631,1.19620418549,1.29248356819,0.0,0.0,0.0,0.0,0.0
1457888162417916188,1.19562399387,1.29305994511,0.0,0.0,0.0,0.0,0.0
1457888162419959324,1.19527053833,1.29341685772,0.0,0.0,0.0,0.0,0.0
1457888162421956805,1.19505500793,1.29363667965,0.0,0.0,0.0,0.0,0.0
1457888162423967383,1.19870364666,1.29867470264,0.0,0.0,0.0,0.0,0.0
1457888162425979757,1.20023012161,1.30050301552,0.0,0.0,0.0,0.0,0.0
1457888162427967852,1.20089316368,1.30113482475,0.0,0.0,0.0,0.0,0.0
1457888162429938736,1.20119464397,1.30133259296,0.0,0.0,0.0,0.0,0.0
1457888162431909894,1.20133900642,1.30138039589,0.0,0.0,0.0,0.0,0.0
1457888162433893221,1.2014118433,1.30138111115,0.0,0.0,0.0,0.0,0.0
1457888162435956038,1.20145046711,1.30137062073,0.0,0.0,0.0,0.0,0.0
1457888162437913949,1.20147180557,1.30135989189,0.0,0.0,0.0,0.0,0.0
1457888162439955233,1.20148408413,1.30135166645,0.0,0.0,0.0,0.0,0.0
1457888162441949694,1.20149123669,1.3013459444,0.0,0.0,0.0,0.0,0.0
1457888162443944188,1.20149540901,1.30134212971,0.0,0.0,0.0,0.0,0.0
1457888162445965921,1.20149803162,1.30133974552,0.0,0.0,0.0,0.0,0.0
1457888162447933772,1.20149958134,1.3013381958,0.0,0.0,0.0,0.0,0.0
1457888162449998158,1.20150053501,1.30133724213,0.0,0.0,0.0,0.0,0.0
1457888162451963939,1.19885873795,1.30360627174,0.0,0.0,0.0,0.0,0.0
1457888162453923308,1.19726753235,1.30506885052,0.0,0.0,0.0,0.0,0.0
1457888162455979810,1.19630074501,1.30599355698,0.0,0.0,0.0,0.0,0.0
1457888162457928470,1.1957116127,1.30657112598,0.0,0.0,0.0,0.0,0.0
1457888162459926686,1.19535195827,1.30692911148,0.0,0.0,0.0,0.0,0.0
1457888162461925121,1.19513225555,1.30714988708,0.0,0.0,0.0,0.0,0.0
1457888162463913734,1.19499790668,1.30728566647,0.0,0.0,0.0,0.0,0.0
1457888162465954334,1.19491577148,1.30736899376,0.0,0.0,0.0,0.0,0.0
1457888162467940334,1.19486546516,1.30742013454,0.0,0.0,0.0,0.0,0.0
1457888162469905691,1.19483470917,1.30745148659,0.0,0.0,0.0,0.0,0.0
1457888162471891171,1.1948158741,1.30747067928,0.0,0.0,0.0,0.0,0.0
1457888162473935996,1.1948043108,1.30748236179,0.0,0.0,0.0,0.0,0.0
1457888162475930130,1.19479727745,1.30748963356,0.0,0.0,0.0,0.0,0.0
1457888162477968328,1.19479298592,1.3074940443,0.0,0.0,0.0,0.0,0.0
1457888162479956112,1.19479036331,1.30749678612,0.0,0.0,0.0,0.0,0.0
1457888162482009894,1.19478869438,1.30749845505,0.0,0.0,0.0,0.0,0.0
1457888162484212196,1.19478774071,1.30749940872,0.0,0.0,0.0,0.0,0.0
1457888162486261996,1.20233464241,1.31731331348,0.0,0.0,0.0,0.0,0.0
1457888162488255686,1.20551979542,1.32082796097,0.0,0.0,0.0,0.0,0.0
1457888162490219478,1.20692551136,1.32200801373,0.0,0.0,0.0,0.0,0.0
1457888162492199852,1.20757853985,1.32235229015,0.0,0.0,0.0,0.0,0.0
1457888162494226965,1.20656895638,1.3235462904,0.0,0.0,0.0,0.0,0.0
1457888162496248810,1.20593011379,1.32426059246,0.0,0.0,0.0,0.0,0.0
1457888162498224730,1.20552945137,1.32469296455,0.0,0.0,0.0,0.0,0.0
1457888162500210437,1.20527970791,1.32495653629,0.0,0.0,0.0,0.0,0.0
1457888162502203626,1.20512461662,1.32511794567,0.0,0.0,0.0,0.0,0.0
1457888162504189944,1.20502853394,1.3252171278,0.0,0.0,0.0,0.0,0.0
1457888162506220184,1.2049690485,1.32527804375,0.0,0.0,0.0,0.0,0.0
1457888162508208502,1.20493233204,1.32531559467,0.0,0.0,0.0,0.0,0.0
1457888162510203701,1.20490956306,1.32533872128,0.0,0.0,0.0,0.0,0.0
1457888162512377051,1.20489561558,1.32535302639,0.0,0.0,0.0,0.0,0.0
1457888162514214406,1.20221817493,1.32762551308,0.0,0.0,0.0,0.0,0.0
1457888162516223958,1.20059633255,1.32909369469,0.0,0.0,0.0,0.0,0.0
1457888162518192916,1.21085190773,1.34480381012,0.0,0.0,0.0,0.0,0.0
1457888162520162400,1.21497368813,1.35069620609,0.0,0.0,0.0,0.0,0.0
1457888162522209539,1.21668565273,1.3528522253,0.0,0.0,0.0,0.0,0.0
1457888162524189232,1.21742510796,1.35360741615,0.0,0.0,0.0,0.0,0.0
1457888162526209288,1.21775996685,1.35385012627,0.0,0.0,0.0,0.0,0.0
1457888162528220830,1.21792018414,1.35391318798,0.0,0.0,0.0,0.0,0.0
1457888162530199817,1.21800124645,1.35391831398,0.0,0.0,0.0,0.0,0.0
1457888162532151191,1.21804451942,1.3539083004,0.0,0.0,0.0,0.0,0.0
1457888162534270237,1.21806871891,1.35389685631,0.0,0.0,0.0,0.0,0.0
1457888162536177111,1.21406185627,1.3572537899,0.0,0.0,0.0,0.0,0.0
1457888162538155205,1.21160757542,1.35944807529,0.0,0.0,0.0,0.0,0.0
1457888162540158660,1.21008980274,1.36085498333,0.0,0.0,0.0,0.0,0.0
1457888162542190709,1.20914900303,1.36174571514,0.0,0.0,0.0,0.0,0.0
1457888162544150197,1.20856559277,1.36230516434,0.0,0.0,0.0,0.0,0.0
1457888162546161483,1.20820367336,1.3626550436,0.0,0.0,0.0,0.0,0.0
1457888162548087179,1.20797920227,1.36287307739,0.0,0.0,0.0,0.0,0.0
1457888162550123007,1.20412230492,1.35806024075,0.0,0.0,0.0,0.0,0.0
1457888162552097299,1.20246171951,1.35637199879,0.0,0.0,0.0,0.0,0.0
1457888162554106720,1.2017172575,1.35582280159,0.0,0.0,0.0,0.0,0.0
1457888162556145325,1.19729185104,1.35907161236,0.0,0.0,0.0,0.0,0.0
1457888162558127084,1.19463670254,1.36123728752,0.0,0.0,0.0,0.0,0.0
1457888162560123840,1.19302213192,1.36263537407,0.0,0.0,0.0,0.0,0.0
1457888162562150978,1.19203579426,1.36352050304,0.0,0.0,0.0,0.0,0.0
1457888162564153104,1.19143199921,1.3640743494,0.0,0.0,0.0,0.0,0.0
1457888162566153976,1.19106185436,1.36441838741,0.0,0.0,0.0,0.0,0.0
1457888162568241788,1.19083476067,1.36463105679,0.0,0.0,0.0,0.0,0.0
1457888162570145109,1.19069552422,1.36476230621,0.0,0.0,0.0,0.0,0.0
1457888162572199093,1.19061005116,1.36484313011,0.0,0.0,0.0,0.0,0.0
1457888162574137512,1.19055759907,1.36489284039,0.0,0.0,0.0,0.0,0.0
1457888162576167947,1.18501722813,1.36948466301,0.0,0.0,0.0,0.0,0.0
1457888162578164800,1.18165516853,1.37239766121,0.0,0.0,0.0,0.0,0.0
1457888162580072294,1.1833564043,1.37913358212,0.0,0.0,0.0,0.0,0.0
1457888162582070008,1.18363535404,1.38205897808,0.0,0.0,0.0,0.0,0.0
1457888162584066266,1.18351435661,1.38339078426,0.0,0.0,0.0,0.0,0.0
1457888162586051900,1.1833281517,1.38403010368,0.0,0.0,0.0,0.0,0.0
1457888162588054846,1.18317103386,1.38435423374,0.0,0.0,0.0,0.0,0.0
1457888162590048970,1.18305826187,1.38452684879,0.0,0.0,0.0,0.0,0.0
1457888162592058285,1.18298280239,1.38462257385,0.0,0.0,0.0,0.0,0.0
1457888162594040202,1.182934165,1.38467741013,0.0,0.0,0.0,0.0,0.0
1457888162596044386,1.182903409,1.38470947742,0.0,0.0,0.0,0.0,0.0
1457888162598056715,1.17868721485,1.38816213608,0.0,0.0,0.0,0.0,0.0
1457888162600070872,1.17613089085,1.39033508301,0.0,0.0,0.0,0.0,0.0
1457888162602040744,1.17456948757,1.39168858528,0.0,0.0,0.0,0.0,0.0
1457888162604066514,1.17361569405,1.39252495766,0.0,0.0,0.0,0.0,0.0
1457888162606085105,1.17303347588,1.3930388689,0.0,0.0,0.0,0.0,0.0
1457888162608074699,1.17267847061,1.39335370064,0.0,0.0,0.0,0.0,0.0
1457888162610105638,1.17246210575,1.39354598522,0.0,0.0,0.0,0.0,0.0
1457888162612126518,1.18363809586,1.40836679935,0.0,0.0,0.0,0.0,0.0
1457888162614143999,1.18810033798,1.41388642788,0.0,0.0,0.0,0.0,0.0
1457888162616145452,1.18993937969,1.41588830948,0.0,0.0,0.0,0.0,0.0
1457888162618091180,1.18506884575,1.42114067078,0.0,0.0,0.0,0.0,0.0
1457888162620135499,1.18196856976,1.42424297333,0.0,0.0,0.0,0.0,0.0
1457888162622067730,1.18000674248,1.42610633373,0.0,0.0,0.0,0.0,0.0
1457888162624139692,1.17877793312,1.42723500729,0.0,0.0,0.0,0.0,0.0
1457888162626154366,1.1780141592,1.42792201042,0.0,0.0,0.0,0.0,0.0
1457888162628119354,1.177541852,1.42834115028,0.0,0.0,0.0,0.0,0.0
1457888162630104644,1.17725074291,1.42859745026,0.0,0.0,0.0,0.0,0.0
1457888162632082168,1.17707169056,1.42875421047,0.0,0.0,0.0,0.0,0.0
1457888162634143224,1.17696166039,1.42885017395,0.0,0.0,0.0,0.0,0.0
1457888162636070735,1.1740231514,1.43120026588,0.0,0.0,0.0,0.0,0.0
1457888162638084378,1.17223381996,1.43267011642,0.0,0.0,0.0,0.0,0.0
1457888162640137831,1.17113876343,1.43358266354,0.0,0.0,0.0,0.0,0.0
1457888162642138117,1.17796099186,1.44398128986,0.0,0.0,0.0,0.0,0.0
1457888162644114287,1.18053090572,1.44799542427,0.0,0.0,0.0,0.0,0.0
1457888162646121175,1.18149614334,1.44954800606,0.0,0.0,0.0,0.0,0.0
1457888162648143210,1.18185544014,1.45015132427,0.0,0.0,0.0,0.0,0.0
1457888162650126875,1.18198680878,1.45038759708,0.0,0.0,0.0,0.0,0.0
1457888162652149090,1.1820333004,1.45048129559,0.0,0.0,0.0,0.0,0.0
1457888162654133606,1.18204879761,1.45051920414,0.0,0.0,0.0,0.0,0.0
1457888162656124475,1.18205320835,1.45053493977,0.0,0.0,0.0,0.0,0.0
1457888162658118312,1.17771971226,1.45396590233,0.0,0.0,0.0,0.0,0.0
1457888162660119578,1.17506551743,1.45611953735,0.0,0.0,0.0,0.0,0.0
1457888162662139137,1.1734290123,1.45746278763,0.0,0.0,0.0,0.0,0.0
1457888162664140119,1.17242097855,1.45829546452,0.0,0.0,0.0,0.0,0.0
1457888162666144763,1.17180097103,1.45880949497,0.0,0.0,0.0,0.0,0.0
1457888162668123817,1.17142009735,1.45912575722,0.0,0.0,0.0,0.0,0.0
1457888162670125402,1.17118644714,1.45932018757,0.0,0.0,0.0,0.0,0.0
1457888162672142141,1.17104315758,1.45943951607,0.0,0.0,0.0,0.0,0.0
1457888162674115999,1.17468750477,1.46444010735,0.0,0.0,0.0,0.0,0.0
1457888162676132076,1.17611086369,1.46632933617,0.0,0.0,0.0,0.0,0.0
1457888162678106287,1.17374813557,1.46932542324,0.0,0.0,0.0,0.0,0.0
1457888162680126339,1.17218613625,1.47101533413,0.0,0.0,0.0,0.0,0.0
1457888162682130950,1.17118024826,1.47199738026,0.0,0.0,0.0,0.0,0.0
1457888162684130119,1.17054438591,1.4725792408,0.0,0.0,0.0,0.0,0.0
1457888162686094757,1.17014706135,1.4729282856,0.0,0.0,0.0,0.0,0.0
1457888162688110163,1.16990053654,1.47313940525,0.0,0.0,0.0,0.0,0.0
1457888162690110165,1.16974830627,1.47326767445,0.0,0.0,0.0,0.0,0.0
1457888162692127475,1.16965448856,1.47334587574,0.0,0.0,0.0,0.0,0.0
1457888162694101445,1.16959691048,1.47339367867,0.0,0.0,0.0,0.0,0.0
1457888162696113910,1.16956150532,1.47342288494,0.0,0.0,0.0,0.0,0.0
1457888162698140393,1.16806590557,1.47458779812,0.0,0.0,0.0,0.0,0.0
1457888162700147429,1.16715216637,1.47531175613,0.0,0.0,0.0,0.0,0.0
1457888162702137949,1.16659247875,1.47575950623,0.0,0.0,0.0,0.0,0.0
1457888162704090586,1.16624975204,1.47603535652,0.0,0.0,0.0,0.0,0.0
1457888162706147148,1.17722833157,1.49099195004,0.0,0.0,0.0,0.0,0.0
1457888162708120917,1.18147087097,1.49667453766,0.0,0.0,0.0,0.0,0.0
1457888162710100342,1.18313741684,1.49881196022,0.0,0.0,0.0,0.0,0.0
1457888162712095557,1.1838054657,1.49960434437,0.0,0.0,0.0,0.0,0.0
1457888162714084472,1.18408060074,1.49989140034,0.0,0.0,0.0,0.0,0.0
1457888162716135640,1.18419802189,1.49999129772,0.0,0.0,0.0,0.0,0.0
1457888162718088348,1.18425047398,1.50002324581,0.0,0.0,0.0,0.0,0.0
1457888162720101586,1.18280005455,1.50116837025,0.0,0.0,0.0,0.0,0.0
1457888162722061562,1.18190217018,1.50188589096,0.0,0.0,0.0,0.0,0.0
1457888162724065482,1.18134534359,1.50233399868,0.0,0.0,0.0,0.0,0.0
1457888162726151932,1.18100011349,1.50261282921,0.0,0.0,0.0,0.0,0.0
1457888162728118089,1.18078613281,1.50278615952,0.0,0.0,0.0,0.0,0.0
1457888162730102204,1.18065369129,1.50289368629,0.0,0.0,0.0,0.0,0.0
1457888162732139797,1.1805716753,1.50296032429,0.0,0.0,0.0,0.0,0.0
1457888162734150043,1.18052077293,1.5030015707,0.0,0.0,0.0,0.0,0.0
1457888162736038751,1.18417942524,1.50798606873,0.0,0.0,0.0,0.0,0.0
1457888162738010623,1.18561708927,1.5098618269,0.0,0.0,0.0,0.0,0.0
1457888162740019757,1.18619203568,1.51055896282,0.0,0.0,0.0,0.0,0.0
1457888162742003434,1.18642783165,1.5108127594,0.0,0.0,0.0,0.0,0.0
1457888162744018346,1.18652784824,1.51090180874,0.0,0.0,0.0,0.0,0.0
1457888162746022551,1.1865721941,1.51093089581,0.0,0.0,0.0,0.0,0.0
1457888162748004672,1.18659293652,1.51093888283,0.0,0.0,0.0,0.0,0.0
1457888162750010385,1.18660330772,1.51093995571,0.0,0.0,0.0,0.0,0.0
1457888162751892875,1.18660867214,1.51093924046,0.0,0.0,0.0,0.0,0.0
1457888162753901856,1.18661165237,1.51093816757,0.0,0.0,0.0,0.0,0.0
1457888162755895227,1.18661344051,1.51093733311,0.0,0.0,0.0,0.0,0.0
1457888162757899938,1.1866145134,1.51093673706,0.0,0.0,0.0,0.0,0.0
1457888162759893727,1.18365597725,1.51320552826,0.0,0.0,0.0,0.0,0.0
1457888162761868013,1.18182480335,1.51463758945,0.0,0.0,0.0,0.0,0.0
1457888162763905239,1.18068623543,1.51553678513,0.0,0.0,0.0,0.0,0.0
1457888162765908103,1.17997860909,1.51609885693,0.0,0.0,0.0,0.0,0.0
1457888162767887766,1.19058465958,1.53134381771,0.0,0.0,0.0,0.0,0.0
1457888162769910800,1.19463968277,1.53717327118,0.0,0.0,0.0,0.0,0.0
1457888162771898478,1.19620609283,1.53939056396,0.0,0.0,0.0,0.0,0.0
1457888162773911094,1.19681811333,1.54022836685,0.0,0.0,0.0,0.0,0.0
1457888162775903443,1.19706070423,1.54054188728,0.0,0.0,0.0,0.0,0.0
1457888162777904690,1.19715893269,1.54065752029,0.0,0.0,0.0,0.0,0.0
1457888162779908365,1.19719982147,1.54069900513,0.0,0.0,0.0,0.0,0.0
1457888162781859416,1.19127011299,1.54521882534,0.0,0.0,0.0,0.0,0.0
1457888162783903097,1.18756341934,1.5480889082,0.0,0.0,0.0,0.0,0.0
1457888162785909438,1.18522822857,1.54990494251,0.0,0.0,0.0,0.0,0.0
1457888162787905312,1.18375980854,1.55104827881,0.0,0.0,0.0,0.0,0.0
1457888162789909632,1.18283927441,1.55176532269,0.0,0.0,0.0,0.0,0.0
1457888162791889552,1.18226349354,1.55221378803,0.0,0.0,0.0,0.0,0.0
1457888162793910346,1.18190395832,1.55249381065,0.0,0.0,0.0,0.0,0.0
1457888162795902771,1.18167972565,1.55266845226,0.0,0.0,0.0,0.0,0.0
1457888162797909493,1.18154001236,1.55277729034,0.0,0.0,0.0,0.0,0.0
1457888162799894622,1.19608461857,1.57277333736,0.0,0.0,0.0,0.0,0.0
1457888162801914693,1.19563961029,1.5848865509,0.0,0.0,0.0,0.0,0.0
1457888162803872372,1.19406688213,1.59059464931,0.0,0.0,0.0,0.0,0.0
1457888162805900843,1.19256818295,1.59346044064,0.0,0.0,0.0,0.0,0.0
1457888162807911166,1.19142603874,1.59498870373,0.0,0.0,0.0,0.0,0.0
1457888162809914817,1.19063019753,1.59584581852,0.0,0.0,0.0,0.0,0.0
1457888162811908719,1.1900998354,1.59634506702,0.0,0.0,0.0,0.0,0.0
1457888162813914008,1.18975508213,1.5966438055,0.0,0.0,0.0,0.0,0.0
1457888162815915575,1.18953406811,1.59682583809,0.0,0.0,0.0,0.0,0.0
1457888162817876662,1.18939340115,1.59693789482,0.0,0.0,0.0,0.0,0.0
1457888162819971146,1.18930447102,1.59700751305,0.0,0.0,0.0,0.0,0.0
1457888162821876214,1.18312466145,1.6015547514,0.0,0.0,0.0,0.0,0.0
1457888162823882340,1.17924499512,1.604424119,0.0,0.0,0.0,0.0,0.0
1457888162825881825,1.17679166794,1.6062349081,0.0,0.0,0.0,0.0,0.0
1457888162827919422,1.17524409294,1.60737395287,0.0,0.0,0.0,0.0,0.0
1457888162829877635,1.17790102959,1.61309063435,0.0,0.0,0.0,0.0,0.0
1457888162831913705,1.17868316174,1.61544513702,0.0,0.0,0.0,0.0,0.0
1457888162833868482,1.17883706093,1.61645102501,0.0,0.0,0.0,0.0,0.0
1457888162835896858,1.17880499363,1.61690175533,0.0,0.0,0.0,0.0,0.0
1457888162837878315,1.17873597145,1.6171156168,0.0,0.0,0.0,0.0,0.0
1457888162839885913,1.17867386341,1.61722350121,0.0,0.0,0.0,0.0,0.0
1457888162841823273,1.17862796783,1.61728107929,0.0,0.0,0.0,0.0,0.0
1457888162843890478,1.17392921448,1.62070190907,0.0,0.0,0.0,0.0,0.0
1457888162845877839,1.17098259926,1.62284100056,0.0,0.0,0.0,0.0,0.0
1457888162847905478,1.16912603378,1.62418138981,0.0,0.0,0.0,0.0,0.0
1457888162849906926,1.16795921326,1.62502014637,0.0,0.0,0.0,0.0,0.0
1457888162851852792,1.1672283411,1.6255440712,0.0,0.0,0.0,0.0,0.0
1457888162853878729,1.16677165031,1.62587070465,0.0,0.0,0.0,0.0,0.0
1457888162855920958,1.16648685932,1.62607419491,0.0,0.0,0.0,0.0,0.0
1457888162857896283,1.1663094759,1.62620079517,0.0,0.0,0.0,0.0,0.0
1457888162859886243,1.1661990881,1.62627959251,0.0,0.0,0.0,0.0,0.0
1457888162861920089,1.18429362774,1.65132915974,0.0,0.0,0.0,0.0,0.0
1457888162863920739,1.18632757664,1.66438782215,0.0,0.0,0.0,0.0,0.0
1457888162865948909,1.18589830399,1.67023181915,0.0,0.0,0.0,0.0,0.0
1457888162867906982,1.18496882915,1.67300486565,0.0,0.0,0.0,0.0,0.0
1457888162869928084,1.18412673473,1.67440748215,0.0,0.0,0.0,0.0,0.0
1457888162871915225,1.1834962368,1.67516088486,0.0,0.0,0.0,0.0,0.0
1457888162873913334,1.18306016922,1.67558610439,0.0,0.0,0.0,0.0,0.0
1457888162875956405,1.18277025223,1.67583537102,0.0,0.0,0.0,0.0,0.0
1457888162877918223,1.18258178234,1.6759853363,0.0,0.0,0.0,0.0,0.0
1457888162879927905,1.1824606657,1.67607724667,0.0,0.0,0.0,0.0,0.0
1457888162882003318,1.18238353729,1.67613422871,0.0,0.0,0.0,0.0,0.0
1457888162883917957,1.17757344246,1.67953443527,0.0,0.0,0.0,0.0,0.0
1457888162885943100,1.17452871799,1.68167090416,0.0,0.0,0.0,0.0,0.0
1457888162887912276,1.17259275913,1.68301844597,0.0,0.0,0.0,0.0,0.0
1457888162889887196,1.17136502266,1.68386781216,0.0,0.0,0.0,0.0,0.0
1457888162891905899,1.1705892086,1.68440258503,0.0,0.0,0.0,0.0,0.0
1457888162893910054,1.17368662357,1.68977212906,0.0,0.0,0.0,0.0,0.0
1457888162895943242,1.174726367,1.69192266464,0.0,0.0,0.0,0.0,0.0
1457888162897966284,1.17503368855,1.69280612469,0.0,0.0,0.0,0.0,0.0
1457888162899947004,1.17509448528,1.69318258762,0.0,0.0,0.0,0.0,0.0
1457888162901894271,1.17508196831,1.69335091114,0.0,0.0,0.0,0.0,0.0
1457888162903857720,1.17505466938,1.69343066216,0.0,0.0,0.0,0.0,0.0
1457888162905968602,1.17021238804,1.69683992863,0.0,0.0,0.0,0.0,0.0
1457888162907920035,1.16714596748,1.69896519184,0.0,0.0,0.0,0.0,0.0
1457888162909929312,1.16519665718,1.70029854774,0.0,0.0,0.0,0.0,0.0
1457888162911959269,1.16396141052,1.70113551617,0.0,0.0,0.0,0.0,0.0
1457888162913889822,1.16318178177,1.7016607523,0.0,0.0,0.0,0.0,0.0
1457888162915967206,1.16269123554,1.70199000835,0.0,0.0,0.0,0.0,0.0
1457888162917910894,1.16238319874,1.70219624043,0.0,0.0,0.0,0.0,0.0
1457888162919919520,1.16219007969,1.70232534409,0.0,0.0,0.0,0.0,0.0
1457888162921916625,1.16206908226,1.70240616798,0.0,0.0,0.0,0.0,0.0
1457888162923899482,1.17633676529,1.72259438038,0.0,0.0,0.0,0.0,0.0
1457888162925942898,1.17832446098,1.73269808292,0.0,0.0,0.0,0.0,0.0
1457888162927906776,1.17816269398,1.73717236519,0.0,0.0,0.0,0.0,0.0
1457888162929940131,1.17751669884,1.73926997185,0.0,0.0,0.0,0.0,0.0
1457888162931921593,1.17689776421,1.74031841755,0.0,0.0,0.0,0.0,0.0
1457888162933952508,1.17642462254,1.74087572098,0.0,0.0,0.0,0.0,0.0
1457888162935953011,1.17609381676,1.74118816853,0.0,0.0,0.0,0.0,0.0
1457888162937923523,1.17587244511,1.74137055874,0.0,0.0,0.0,0.0,0.0
1457888162939953656,1.17572772503,1.74148011208,0.0,0.0,0.0,0.0,0.0
1457888162942038507,1.17563438416,1.7415471077,0.0,0.0,0.0,0.0,0.0
1457888162943947376,1.1755746603,1.74158871174,0.0,0.0,0.0,0.0,0.0
1457888162945911996,1.172270298,1.74384868145,0.0,0.0,0.0,0.0,0.0
1457888162947952768,1.17016458511,1.74526500702,0.0,0.0,0.0,0.0,0.0
1457888162949941907,1.16882061958,1.74615776539,0.0,0.0,0.0,0.0,0.0
1457888162951932146,1.16796541214,1.7467212677,0.0,0.0,0.0,0.0,0.0
1457888162953951948,1.16742289066,1.74707710743,0.0,0.0,0.0,0.0,0.0
1457888162955968129,1.17062723637,1.75236296654,0.0,0.0,0.0,0.0,0.0
1457888162957910861,1.1717236042,1.75446784496,0.0,0.0,0.0,0.0,0.0
1457888162959973152,1.17206180096,1.75532519817,0.0,0.0,0.0,0.0,0.0
1457888162961929192,1.17213976383,1.75568628311,0.0,0.0,0.0,0.0,0.0
1457888162963874101,1.17213702202,1.75584554672,0.0,0.0,0.0,0.0,0.0
1457888162965965441,1.16882431507,1.75815320015,0.0,0.0,0.0,0.0,0.0
1457888162967965536,1.16670453548,1.75958609581,0.0,0.0,0.0,0.0,0.0
1457888162969961844,1.16534805298,1.7604842186,0.0,0.0,0.0,0.0,0.0
1457888162971950170,1.164483428,1.76104915142,0.0,0.0,0.0,0.0,0.0
1457888162973886246,1.16393446922,1.76140511036,0.0,0.0,0.0,0.0,0.0
1457888162975939058,1.16358673573,1.76162922382,0.0,0.0,0.0,0.0,0.0
1457888162977897395,1.163367033,1.76177048683,0.0,0.0,0.0,0.0,0.0
1457888162979970258,1.16322827339,1.76185941696,0.0,0.0,0.0,0.0,0.0
1457888162981950959,1.16314077377,1.76191544533,0.0,0.0,0.0,0.0,0.0
1457888162983931173,1.16308569908,1.76195085049,0.0,0.0,0.0,0.0,0.0
1457888162985913696,1.16305088997,1.76197302341,0.0,0.0,0.0,0.0,0.0
1457888162987976551,1.17388439178,1.78448522091,0.0,0.0,0.0,0.0,0.0
1457888162989953782,1.17691779137,1.79379403591,0.0,0.0,0.0,0.0,0.0
1457888162991945813,1.17740035057,1.79778325558,0.0,0.0,0.0,0.0,0.0
1457888162993951211,1.17715549469,1.79958128929,0.0,0.0,0.0,0.0,0.0
1457888162995913126,1.17678725719,1.80044317245,0.0,0.0,0.0,0.0,0.0
1457888162997930922,1.17647099495,1.80088424683,0.0,0.0,0.0,0.0,0.0
1457888162999953546,1.17623794079,1.80112397671,0.0,0.0,0.0,0.0,0.0
1457888163001936602,1.17607748508,1.80126106739,0.0,0.0,0.0,0.0,0.0
1457888163003865165,1.17597055435,1.80134236813,0.0,0.0,0.0,0.0,0.0
1457888163005918540,1.17256844044,1.80361008644,0.0,0.0,0.0,0.0,0.0
1457888163007947021,1.17038202286,1.8050340414,0.0,0.0,0.0,0.0,0.0
1457888163009939168,1.16897547245,1.80593526363,0.0,0.0,0.0,0.0,0.0
1457888163011888442,1.16807341576,1.8065071106,0.0,0.0,0.0,0.0,0.0
1457888163013953101,1.16749691963,1.80687022209,0.0,0.0,0.0,0.0,0.0
1457888163015957668,1.16712939739,1.80710077286,0.0,0.0,0.0,0.0,0.0
1457888163017909080,1.17741584778,1.82251882553,0.0,0.0,0.0,0.0,0.0
1457888163019966940,1.18110990524,1.82856738567,0.0,0.0,0.0,0.0,0.0
1457888163021942457,1.18237876892,1.83097040653,0.0,0.0,0.0,0.0,0.0
1457888163023886537,1.18277430534,1.8319453001,0.0,0.0,0.0,0.0,0.0
1457888163025977459,1.18286812305,1.83235394955,0.0,0.0,0.0,0.0,0.0
1457888163027973707,1.17951476574,1.83473944664,0.0,0.0,0.0,0.0,0.0
1457888163029941173,1.17732417583,1.83621704578,0.0,0.0,0.0,0.0,0.0
1457888163031909976,1.17589724064,1.83714687824,0.0,0.0,0.0,0.0,0.0
1457888163033952657,1.1749727726,1.83773672581,0.0,0.0,0.0,0.0,0.0
1457888163035923053,1.17437660694,1.83811199665,0.0,0.0,0.0,0.0,0.0
1457888163037922094,1.17399358749,1.83835124969,0.0,0.0,0.0,0.0,0.0
1457888163039943881,1.17374801636,1.83850395679,0.0,0.0,0.0,0.0,0.0
1457888163041923945,1.1735907793,1.83860135078,0.0,0.0,0.0,0.0,0.0
1457888163043905325,1.17349016666,1.83866357803,0.0,0.0,0.0,0.0,0.0
1457888163045941240,1.17342591286,1.83870315552,0.0,0.0,0.0,0.0,0.0
1457888163047950719,1.16662597656,1.84314835072,0.0,0.0,0.0,0.0,0.0
1457888163049947955,1.17612242699,1.8663892746,0.0,0.0,0.0,0.0,0.0
1457888163051922931,1.17830586433,1.87614762783,0.0,0.0,0.0,0.0,0.0
1457888163053953767,1.17822706699,1.88043022156,0.0,0.0,0.0,0.0,0.0
1457888163055953513,1.17760908604,1.88242220879,0.0,0.0,0.0,0.0,0.0
1457888163057952882,1.17699301243,1.88341259956,0.0,0.0,0.0,0.0,0.0
1457888163059955478,1.17651224136,1.88393878937,0.0,0.0,0.0,0.0,0.0
1457888163061917771,1.17617046833,1.88423502445,0.0,0.0,0.0,0.0,0.0
1457888163063947513,1.17593801022,1.88440942764,0.0,0.0,0.0,0.0,0.0
1457888163065995423,1.1757838726,1.88451528549,0.0,0.0,0.0,0.0,0.0
1457888163067975868,1.17226111889,1.88677585125,0.0,0.0,0.0,0.0,0.0
1457888163069940593,1.16997277737,1.88820028305,0.0,0.0,0.0,0.0,0.0
1457888163071922680,1.16848528385,1.88910710812,0.0,0.0,0.0,0.0,0.0
1457888163073955828,1.16752183437,1.8896869421,0.0,0.0,0.0,0.0,0.0
1457888163075914170,1.16690003872,1.89005815983,0.0,0.0,0.0,0.0,0.0
1457888163077942718,1.16649985313,1.89029598236,0.0,0.0,0.0,0.0,0.0
1457888163079964373,1.1662427187,1.89044809341,0.0,0.0,0.0,0.0,0.0
1457888163081953925,1.15918052197,1.8802832365,0.0,0.0,0.0,0.0,0.0
1457888163083893928,1.15657401085,1.87633466721,0.0,0.0,0.0,0.0,0.0
1457888163085903933,1.15564584732,1.87478196621,0.0,0.0,0.0,0.0,0.0
1457888163087886184,1.15533781052,1.87415969372,0.0,0.0,0.0,0.0,0.0
1457888163089944393,1.15179467201,1.87611222267,0.0,0.0,0.0,0.0,0.0
1457888163091943688,1.1495527029,1.87737262249,0.0,0.0,0.0,0.0,0.0
1457888163093875120,1.14812445641,1.8781837225,0.0,0.0,0.0,0.0,0.0
1457888163095951772,1.14721405506,1.87870323658,0.0,0.0,0.0,0.0,0.0
1457888163097939901,1.14663481712,1.87903487682,0.0,0.0,0.0,0.0,0.0
1457888163099953726,1.14626669884,1.87924587727,0.0,0.0,0.0,0.0,0.0
1457888163101905653,1.14603328705,1.87937986851,0.0,0.0,0.0,0.0,0.0
1457888163103916412,1.14588522911,1.87946486473,0.0,0.0,0.0,0.0,0.0
1457888163105847202,1.1457914114,1.87951862812,0.0,0.0,0.0,0.0,0.0
1457888163107889798,1.14573204517,1.87955260277,0.0,0.0,0.0,0.0,0.0
1457888163109886725,1.14395129681,1.8806810379,0.0,0.0,0.0,0.0,0.0
1457888163111867245,1.14974212646,1.89161622524,0.0,0.0,0.0,0.0,0.0
1457888163113917066,1.15146934986,1.89608860016,0.0,0.0,0.0,0.0,0.0
1457888163115950512,1.15182113647,1.89797985554,0.0,0.0,0.0,0.0,0.0
1457888163117940383,1.15175867081,1.8988173008,0.0,0.0,0.0,0.0,0.0
1457888163119941935,1.15160882473,1.89921009541,0.0,0.0,0.0,0.0,0.0
1457888163121915706,1.151471138,1.89940667152,0.0,0.0,0.0,0.0,0.0
1457888163123940567,1.15136706829,1.89951133728,0.0,0.0,0.0,0.0,0.0
1457888163125943888,1.15129458904,1.89957010746,0.0,0.0,0.0,0.0,0.0
1457888163127920157,1.15124607086,1.89960455894,0.0,0.0,0.0,0.0,0.0
1457888163129932311,1.14771926403,1.90182995796,0.0,0.0,0.0,0.0,0.0
1457888163131854276,1.14544260502,1.90320658684,0.0,0.0,0.0,0.0,0.0
1457888163133944805,1.1439729929,1.90407025814,0.0,0.0,0.0,0.0,0.0
1457888163135867271,1.14302837849,1.90461552143,0.0,0.0,0.0,0.0,0.0
1457888163137878707,1.14242398739,1.90496075153,0.0,0.0,0.0,0.0,0.0
1457888163139935814,1.14203834534,1.90517938137,0.0,0.0,0.0,0.0,0.0
1457888163141883777,1.14179313183,1.90531802177,0.0,0.0,0.0,0.0,0.0
1457888163143975133,1.14854478836,1.91566550732,0.0,0.0,0.0,0.0,0.0
1457888163145965745,1.15088653564,1.91977262497,0.0,0.0,0.0,0.0,0.0
1457888163147907106,1.15162873268,1.92143440247,0.0,0.0,0.0,0.0,0.0
1457888163149973646,1.15181457996,1.92212688923,0.0,0.0,0.0,0.0,0.0
1457888163151923875,1.14830291271,1.92462646961,0.0,0.0,0.0,0.0,0.0
1457888163153961520,1.14598834515,1.92612576485,0.0,0.0,0.0,0.0,0.0
1457888163155961174,1.14447402954,1.92704904079,0.0,0.0,0.0,0.0,0.0
1457888163157961004,1.14349150658,1.92762589455,0.0,0.0,0.0,0.0,0.0
1457888163159961463,1.14285814762,1.92798924446,0.0,0.0,0.0,0.0,0.0
1457888163161966936,1.14245200157,1.92821907997,0.0,0.0,0.0,0.0,0.0
1457888163163960090,1.14219248295,1.92836475372,0.0,0.0,0.0,0.0,0.0
1457888163165909092,1.14202702045,1.92845702171,0.0,0.0,0.0,0.0,0.0
1457888163167967158,1.14192163944,1.92851567268,0.0,0.0,0.0,0.0,0.0
1457888163169928665,1.14185464382,1.92855286598,0.0,0.0,0.0,0.0,0.0
1457888163171836654,1.13826644421,1.9307756424,0.0,0.0,0.0,0.0,0.0
1457888163173862639,1.14623236656,1.94758427143,0.0,0.0,0.0,0.0,0.0
1457888163175862582,1.14834070206,1.95455026627,0.0,0.0,0.0,0.0,0.0
1457888163177875040,1.14855110645,1.95754981041,0.0,0.0,0.0,0.0,0.0
1457888163179873395,1.14824938774,1.95890963078,0.0,0.0,0.0,0.0,0.0
1457888163181878903,1.14788794518,1.95956587791,0.0,0.0,0.0,0.0,0.0
1457888163183912991,1.14759147167,1.95990395546,0.0,0.0,0.0,0.0,0.0
1457888163185889636,1.14737665653,1.96008908749,0.0,0.0,0.0,0.0,0.0
1457888163187930103,1.14722931385,1.96019554138,0.0,0.0,0.0,0.0,0.0
1457888163189871500,1.14713144302,1.96025919914,0.0,0.0,0.0,0.0,0.0
1457888163191868532,1.14706742764,1.96029818058,0.0,0.0,0.0,0.0,0.0
1457888163193880443,1.1470259428,1.96032238007,0.0,0.0,0.0,0.0,0.0
1457888163195880904,1.14699912071,1.96033751965,0.0,0.0,0.0,0.0,0.0
1457888163197879048,1.14698195457,1.9603471756,0.0,0.0,0.0,0.0,0.0
1457888163199870400,1.14697086811,1.96035325527,0.0,0.0,0.0,0.0,0.0
1457888163201883584,1.14696383476,1.96035718918,0.0,0.0,0.0,0.0,0.0
1457888163203881358,1.14695930481,1.96035957336,0.0,0.0,0.0,0.0,0.0
1457888163205884332,1.14695644379,1.96036112309,0.0,0.0,0.0,0.0,0.0
1457888163207885114,1.14695465565,1.96036219597,0.0,0.0,0.0,0.0,0.0
1457888163209843947,1.14695346355,1.96036291122,0.0,0.0,0.0,0.0,0.0
1457888163211832330,1.1469527483,1.96036326885,0.0,0.0,0.0,0.0,0.0
1457888163213894664,1.14516878128,1.96145689487,0.0,0.0,0.0,0.0,0.0
1457888163215878429,1.14400839806,1.96213567257,0.0,0.0,0.0,0.0,0.0
1457888163217844627,1.14325630665,1.96256268024,0.0,0.0,0.0,0.0,0.0
1457888163219879167,1.14277100563,1.96283328533,0.0,0.0,0.0,0.0,0.0
1457888163221899905,1.14245903492,1.96300554276,0.0,0.0,0.0,0.0,0.0
1457888163223879351,1.14225900173,1.9631152153,0.0,0.0,0.0,0.0,0.0
1457888163225895958,1.14213097095,1.96318519115,0.0,0.0,0.0,0.0,0.0
1457888163227969893,1.14204907417,1.96322977543,0.0,0.0,0.0,0.0,0.0
1457888163229956535,1.14199674129,1.96325814724,0.0,0.0,0.0,0.0,0.0
1457888163231907246,1.1419634819,1.96327626705,0.0,0.0,0.0,0.0,0.0
1457888163233923122,1.14015185833,1.96438145638,0.0,0.0,0.0,0.0,0.0
1457888163235950187,1.1389747858,1.96506536007,0.0,0.0,0.0,0.0,0.0
1457888163237933685,1.14502441883,1.9758194685,0.0,0.0,0.0,0.0,0.0
1457888163239971795,1.14691853523,1.98017680645,0.0,0.0,0.0,0.0,0.0
1457888163241971963,1.14737296104,1.98199546337,0.0,0.0,0.0,0.0,0.0
1457888163243971895,1.14737272263,1.98278737068,0.0,0.0,0.0,0.0,0.0
1457888163245970698,1.14726030827,1.98315179348,0.0,0.0,0.0,0.0,0.0
1457888163247972877,1.14714491367,1.98333072662,0.0,0.0,0.0,0.0,0.0
1457888163249948192,1.14705407619,1.98342442513,0.0,0.0,0.0,0.0,0.0
1457888163251914589,1.14698934555,1.98347651958,0.0,0.0,0.0,0.0,0.0
1457888163253931159,1.14335656166,1.98568511009,0.0,0.0,0.0,0.0,0.0
1457888163255927153,1.14098858833,1.98705327511,0.0,0.0,0.0,0.0,0.0
1457888163257981695,1.13944590092,1.98791563511,0.0,0.0,0.0,0.0,0.0
1457888163259937439,1.13844501972,1.988463521,0.0,0.0,0.0,0.0,0.0
1457888163261927793,1.13779866695,1.98881292343,0.0,0.0,0.0,0.0,0.0
1457888163263992261,1.13738274574,1.98903596401,0.0,0.0,0.0,0.0,0.0
1457888163265928656,1.13711583614,1.98917841911,0.0,0.0,0.0,0.0,0.0
1457888163267931121,1.14711737633,2.004789114,0.0,0.0,0.0,0.0,0.0
1457888163269950028,1.15055203438,2.01099705696,0.0,0.0,0.0,0.0,0.0
1457888163271917979,1.15161383152,2.01351523399,0.0,0.0,0.0,0.0,0.0
1457888163273903508,1.15185832977,2.01456809044,0.0,0.0,0.0,0.0,0.0
1457888163275945658,1.15004038811,2.01611232758,0.0,0.0,0.0,0.0,0.0
1457888163277982058,1.14878427982,2.01700162888,0.0,0.0,0.0,0.0,0.0
1457888163279887648,1.14793884754,2.01753568649,0.0,0.0,0.0,0.0,0.0
1457888163281883208,1.14737915993,2.01786541939,0.0,0.0,0.0,0.0,0.0
1457888163283947184,1.14701247215,2.01807236671,0.0,0.0,0.0,0.0,0.0
1457888163285896659,1.14677369595,2.01820373535,0.0,0.0,0.0,0.0,0.0
1457888163287948234,1.1466190815,2.01828742027,0.0,0.0,0.0,0.0,0.0
1457888163290026604,1.14651918411,2.01834106445,0.0,0.0,0.0,0.0,0.0
1457888163291957882,1.14645469189,2.01837539673,0.0,0.0,0.0,0.0,0.0
1457888163293890501,1.14641332626,2.01839756966,0.0,0.0,0.0,0.0,0.0
1457888163295929214,1.14457452297,2.01949477196,0.0,0.0,0.0,0.0,0.0
1457888163297973817,1.14336979389,2.02017855644,0.0,0.0,0.0,0.0,0.0
1457888163299898668,1.14930582047,2.03099513054,0.0,0.0,0.0,0.0,0.0
1457888163301899450,1.15114212036,2.03537893295,0.0,0.0,0.0,0.0,0.0
1457888163303903184,1.15156233311,2.0372107029,0.0,0.0,0.0,0.0,0.0
1457888163305902447,1.15153980255,2.03801035881,0.0,0.0,0.0,0.0,0.0
1457888163307904988,1.15141189098,2.03838014603,0.0,0.0,0.0,0.0,0.0
1457888163309913281,1.15128529072,2.03856277466,0.0,0.0,0.0,0.0,0.0
1457888163311932693,1.15118658543,2.03865933418,0.0,0.0,0.0,0.0,0.0
1457888163313885979,1.14930021763,2.03979206085,0.0,0.0,0.0,0.0,0.0
1457888163315909008,1.14805722237,2.04049897194,0.0,0.0,0.0,0.0,0.0
1457888163317951572,1.14724159241,2.04094743729,0.0,0.0,0.0,0.0,0.0
1457888163319880507,1.1467089653,2.04123425484,0.0,0.0,0.0,0.0,0.0
1457888163321937450,1.14636254311,2.0414185524,0.0,0.0,0.0,0.0,0.0
1457888163323909255,1.1461378336,2.04153704643,0.0,0.0,0.0,0.0,0.0
1457888163325872905,1.14599239826,2.0416135788,0.0,0.0,0.0,0.0,0.0
1457888163327912109,1.14589834213,2.04166293144,0.0,0.0,0.0,0.0,0.0
1457888163329893163,1.1458376646,2.04169464111,0.0,0.0,0.0,0.0,0.0
1457888163331908142,1.14579844475,2.04171514511,0.0,0.0,0.0,0.0,0.0
1457888163333885927,1.14577317238,2.04172825813,0.0,0.0,0.0,0.0,0.0
1457888163335881816,1.14028525352,2.04497432709,0.0,0.0,0.0,0.0,0.0
1457888163337850269,1.1366904974,2.04698514938,0.0,0.0,0.0,0.0,0.0
1457888163339819033,1.13432824612,2.04825806618,0.0,0.0,0.0,0.0,0.0
1457888163341864853,1.132781744,2.04907202721,0.0,0.0,0.0,0.0,0.0
1457888163343914059,1.1317743063,2.04959464073,0.0,0.0,0.0,0.0,0.0
1457888163345889712,1.13112080097,2.04993057251,0.0,0.0,0.0,0.0,0.0
1457888163347921404,1.13069868088,2.05014657974,0.0,0.0,0.0,0.0,0.0
1457888163349869957,1.13042652607,2.05028533936,0.0,0.0,0.0,0.0,0.0
1457888163351847783,1.13025140762,2.0503745079,0.0,0.0,0.0,0.0,0.0
1457888163353862316,1.13013887405,2.05043148994,0.0,0.0,0.0,0.0,0.0
1457888163355909570,1.12637805939,2.05262637138,0.0,0.0,0.0,0.0,0.0
1457888163357903606,1.12391889095,2.05397772789,0.0,0.0,0.0,0.0,0.0
1457888163359874479,1.12231218815,2.05482721329,0.0,0.0,0.0,0.0,0.0
1457888163361888368,1.13794338703,2.08141827583,0.0,0.0,0.0,0.0,0.0
1457888163363882469,1.1429810524,2.09212851524,0.0,0.0,0.0,0.0,0.0
1457888163365896666,1.144297719,2.09655451775,0.0,0.0,0.0,0.0,0.0
1457888163367872471,1.14440858364,2.09845328331,0.0,0.0,0.0,0.0,0.0
1457888163369988692,1.14419460297,2.09931206703,0.0,0.0,0.0,0.0,0.0
1457888163372061882,1.14394509792,2.0997262001,0.0,0.0,0.0,0.0,0.0
1457888163373957883,1.14373993874,2.09994029999,0.0,0.0,0.0,0.0,0.0
1457888163375930802,1.13988649845,2.10219502449,0.0,0.0,0.0,0.0,0.0
1457888163377921961,1.13733589649,2.10359501839,0.0,0.0,0.0,0.0,0.0
1457888163379917724,1.1356498003,2.10448336601,0.0,0.0,0.0,0.0,0.0
1457888163381915135,1.13454008102,2.10505342484,0.0,0.0,0.0,0.0,0.0
1457888163383878850,1.13381326199,2.1054213047,0.0,0.0,0.0,0.0,0.0
1457888163385895467,1.13333904743,2.10565900803,0.0,0.0,0.0,0.0,0.0
1457888163387969787,1.13303053379,2.10581278801,0.0,0.0,0.0,0.0,0.0
1457888163389878394,1.13283038139,2.10591244698,0.0,0.0,0.0,0.0,0.0
1457888163391860054,1.13270068169,2.10597681999,0.0,0.0,0.0,0.0,0.0
1457888163393869151,1.14251875877,2.121717453,0.0,0.0,0.0,0.0,0.0
1457888163395869326,1.14586639404,2.12797760963,0.0,0.0,0.0,0.0,0.0
1457888163397887228,1.14312708378,2.13265752792,0.0,0.0,0.0,0.0,0.0
1457888163399869762,1.14086484909,2.13505172729,0.0,0.0,0.0,0.0,0.0
1457888163401943273,1.13919496536,2.13636445999,0.0,0.0,0.0,0.0,0.0
1457888163403858237,1.13802623749,2.13712716103,0.0,0.0,0.0,0.0,0.0
1457888163405869141,1.13723170757,2.13758921623,0.0,0.0,0.0,0.0,0.0
1457888163407946909,1.13670086861,2.13787722588,0.0,0.0,0.0,0.0,0.0
1457888163409875909,1.13634991646,2.13805985451,0.0,0.0,0.0,0.0,0.0
1457888163411870013,1.13611936569,2.13817667961,0.0,0.0,0.0,0.0,0.0
1457888163413884276,1.13596868515,2.13825201988,0.0,0.0,0.0,0.0,0.0
1457888163415969006,1.13587033749,2.13830065727,0.0,0.0,0.0,0.0,0.0
1457888163417862987,1.13392865658,2.13939404488,0.0,0.0,0.0,0.0,0.0
1457888163419948548,1.13264107704,2.14007735252,0.0,0.0,0.0,0.0,0.0
1457888163421921453,1.13179087639,2.14051222801,0.0,0.0,0.0,0.0,0.0
1457888163423891122,1.13123202324,2.14079165459,0.0,0.0,0.0,0.0,0.0
1457888163425872803,1.13086616993,2.14097237587,0.0,0.0,0.0,0.0,0.0
1457888163427867873,1.13062727451,2.14108943939,0.0,0.0,0.0,0.0,0.0
1457888163429870273,1.13047170639,2.1411652565,0.0,0.0,0.0,0.0,0.0
1457888163431853857,1.13037061691,2.14121437073,0.0,0.0,0.0,0.0,0.0
1457888163433906063,1.13030493259,2.14124631882,0.0,0.0,0.0,0.0,0.0
1457888163435964956,1.13026225567,2.14126706123,0.0,0.0,0.0,0.0,0.0
1457888163437876125,1.12834894657,2.14234232903,0.0,0.0,0.0,0.0,0.0
1457888163439905191,1.12708163261,2.14301133156,0.0,0.0,0.0,0.0,0.0
1457888163441897691,1.12624573708,2.14343571663,0.0,0.0,0.0,0.0,0.0
1457888163443876460,1.12569713593,2.14370799065,0.0,0.0,0.0,0.0,0.0
1457888163445901009,1.12533843517,2.14388346672,0.0,0.0,0.0,0.0,0.0
1457888163447887318,1.12510478497,2.14399695396,0.0,0.0,0.0,0.0,0.0
1457888163449876720,1.12495291233,2.14407038689,0.0,0.0,0.0,0.0,0.0
1457888163451880789,1.12485420704,2.1441180706,0.0,0.0,0.0,0.0,0.0
1457888163453870174,1.12479019165,2.1441488266,0.0,0.0,0.0,0.0,0.0
1457888163455870259,1.13783359528,2.16517901421,0.0,0.0,0.0,0.0,0.0
1457888163457870214,1.1422637701,2.17354917526,0.0,0.0,0.0,0.0,0.0
1457888163459909853,1.14358663559,2.17694950104,0.0,0.0,0.0,0.0,0.0
1457888163461895523,1.14385056496,2.17837429047,0.0,0.0,0.0,0.0,0.0
1457888163463897647,1.14379191399,2.17899918556,0.0,0.0,0.0,0.0,0.0
1457888163465940713,1.143663764,2.17929029465,0.0,0.0,0.0,0.0,0.0
1457888163467859013,1.14354491234,2.1794359684,0.0,0.0,0.0,0.0,0.0
1457888163469838658,1.14345347881,2.17951393127,0.0,0.0,0.0,0.0,0.0
1457888163471921249,1.14338827133,2.17955851555,0.0,0.0,0.0,0.0,0.0
1457888163473846851,1.14334344864,2.17958521843,0.0,0.0,0.0,0.0,0.0
1457888163475868686,1.14331328869,2.17960190773,0.0,0.0,0.0,0.0,0.0
1457888163477877833,1.14329326153,2.17961239815,0.0,0.0,0.0,0.0,0.0
1457888163479934572,1.14139175415,2.18067288399,0.0,0.0,0.0,0.0,0.0
1457888163481859796,1.14012181759,2.18133997917,0.0,0.0,0.0,0.0,0.0
1457888163483875784,1.13927721977,2.1817677021,0.0,0.0,0.0,0.0,0.0
1457888163485871615,1.13871788979,2.18204474449,0.0,0.0,0.0,0.0,0.0
1457888163487873181,1.15130102634,2.20331287384,0.0,0.0,0.0,0.0,0.0
1457888163489871590,1.15550041199,2.21179246902,0.0,0.0,0.0,0.0,0.0
1457888163491854697,1.15669715405,2.2152504921,0.0,0.0,0.0,0.0,0.0
1457888163493871990,1.15688538551,2.2167096138,0.0,0.0,0.0,0.0,0.0
1457888163495873439,1.15677809715,2.21735668182,0.0,0.0,0.0,0.0,0.0
1457888163497874558,1.15661752224,2.2176630497,0.0,0.0,0.0,0.0,0.0
1457888163499901306,1.1545869112,2.21886491776,0.0,0.0,0.0,0.0,0.0
1457888163501855763,1.15320837498,2.2196149826,0.0,0.0,0.0,0.0,0.0
1457888163503878112,1.15227913857,2.22009515762,0.0,0.0,0.0,0.0,0.0
1457888163505877802,1.15165662766,2.22040724754,0.0,0.0,0.0,0.0,0.0
1457888163507877114,1.15124154091,2.22061157227,0.0,0.0,0.0,0.0,0.0
1457888163509879087,1.15096580982,2.22074580193,0.0,0.0,0.0,0.0,0.0
1457888163511875678,1.15078294277,2.22083425522,0.0,0.0,0.0,0.0,0.0
1457888163513877905,1.15066194534,2.22089266777,0.0,0.0,0.0,0.0,0.0
1457888163515876144,1.15058195591,2.22093129158,0.0,0.0,0.0,0.0,0.0
1457888163517873500,1.15052914619,2.22095656395,0.0,0.0,0.0,0.0,0.0
1457888163519991369,1.16333687305,2.24212694168,0.0,0.0,0.0,0.0,0.0
1457888163521860291,1.16582274437,2.25155854225,0.0,0.0,0.0,0.0,0.0
1457888163523888366,1.16588246822,2.25560951233,0.0,0.0,0.0,0.0,0.0
1457888163525848425,1.16531360149,2.25744891167,0.0,0.0,0.0,0.0,0.0
1457888163527851607,1.16469907761,2.25834512711,0.0,0.0,0.0,0.0,0.0
1457888163529887375,1.16419756413,2.25881671906,0.0,0.0,0.0,0.0,0.0
1457888163531900885,1.16382730007,2.25908303261,0.0,0.0,0.0,0.0,0.0
1457888163533841467,1.16356647015,2.2592420578,0.0,0.0,0.0,0.0,0.0
1457888163535889592,1.16338717937,2.25934123993,0.0,0.0,0.0,0.0,0.0
1457888163537885322,1.16326546669,2.25940465927,0.0,0.0,0.0,0.0,0.0
1457888163539935519,1.16318368912,2.25944566727,0.0,0.0,0.0,0.0,0.0
1457888163541868126,1.16122984886,2.2605099678,0.0,0.0,0.0,0.0,0.0
1457888163543886634,1.15990638733,2.26119208336,0.0,0.0,0.0,0.0,0.0
1457888163545885787,1.1590129137,2.26163721085,0.0,0.0,0.0,0.0,0.0
1457888163547901323,1.15841221809,2.26193094254,0.0,0.0,0.0,0.0,0.0
1457888163549904940,1.17389130592,2.28866744041,0.0,0.0,0.0,0.0,0.0
1457888163551859685,1.1791036129,2.29928207397,0.0,0.0,0.0,0.0,0.0
1457888163553861336,1.18062031269,2.30358672142,0.0,0.0,0.0,0.0,0.0
1457888163555887359,1.1808835268,2.30539131165,0.0,0.0,0.0,0.0,0.0
1457888163557895563,1.18077015877,2.30618619919,0.0,0.0,0.0,0.0,0.0
1457888163559907793,1.18058168888,2.30656075478,0.0,0.0,0.0,0.0,0.0
1457888163561855210,1.17851126194,2.30777955055,0.0,0.0,0.0,0.0,0.0
1457888163563856188,1.17708098888,2.30855107307,0.0,0.0,0.0,0.0,0.0
1457888163565888714,1.17610001564,2.30905294418,0.0,0.0,0.0,0.0,0.0
1457888163567902677,1.17543137074,2.30938482285,0.0,0.0,0.0,0.0,0.0
1457888163569882990,1.17497766018,2.30960583687,0.0,0.0,0.0,0.0,0.0
1457888163571875768,1.17467081547,2.30975389481,0.0,0.0,0.0,0.0,0.0
1457888163573878836,1.17446374893,2.30985331535,0.0,0.0,0.0,0.0,0.0
1457888163575844770,1.17432415485,2.30991983414,0.0,0.0,0.0,0.0,0.0
1457888163577875618,1.17423033714,2.30996465683,0.0,0.0,0.0,0.0,0.0
1457888163579860857,1.17416727543,2.30999469757,0.0,0.0,0.0,0.0,0.0
1457888163581890085,1.18984210491,2.33665299416,0.0,0.0,0.0,0.0,0.0
1457888163583880686,1.19334089756,2.34819626808,0.0,0.0,0.0,0.0,0.0
1457888163585894496,1.19371402264,2.35308551788,0.0,0.0,0.0,0.0,0.0
1457888163587882635,1.19320726395,2.35527014732,0.0,0.0,0.0,0.0,0.0
1457888163589858215,1.19256997108,2.35631895065,0.0,0.0,0.0,0.0,0.0
1457888163591876845,1.19202291965,2.35686540604,0.0,0.0,0.0,0.0,0.0
1457888163593892812,1.19160664082,2.35717320442,0.0,0.0,0.0,0.0,0.0
1457888163595867960,1.19130623341,2.35735821724,0.0,0.0,0.0,0.0,0.0
1457888163597869260,1.19109535217,2.35747480392,0.0,0.0,0.0,0.0,0.0
1457888163599882259,1.19094932079,2.35755038261,0.0,0.0,0.0,0.0,0.0
1457888163601862041,1.19084918499,2.35760045052,0.0,0.0,0.0,0.0,0.0
1457888163603893060,1.19078075886,2.35763406754,0.0,0.0,0.0,0.0,0.0
1457888163605828846,1.19073402882,2.35765647888,0.0,0.0,0.0,0.0,0.0
1457888163607801344,1.19070243835,2.35767173767,0.0,0.0,0.0,0.0,0.0
1457888163609877200,1.19068086147,2.35768198967,0.0,0.0,0.0,0.0,0.0
1457888163611894987,1.19066631794,2.35768890381,0.0,0.0,0.0,0.0,0.0
1457888163613896030,1.19376504421,2.36304092407,0.0,0.0,0.0,0.0,0.0
1457888163615899848,1.19484674931,2.36514401436,0.0,0.0,0.0,0.0,0.0
1457888163617897365,1.19518840313,2.36598515511,0.0,0.0,0.0,0.0,0.0
1457888163619927284,1.19526934624,2.3663315773,0.0,0.0,0.0,0.0,0.0
1457888163621903685,1.19526600838,2.36648058891,0.0,0.0,0.0,0.0,0.0
1457888163623935785,1.19524133205,2.36654901505,0.0,0.0,0.0,0.0,0.0
1457888163625945534,1.19521570206,2.36658287048,0.0,0.0,0.0,0.0,0.0
1457888163628010254,1.19519495964,2.3666009903,0.0,0.0,0.0,0.0,0.0
1457888163629947678,1.19517946243,2.36661148071,0.0,0.0,0.0,0.0,0.0
1457888163631927621,1.19516849518,2.36661791801,0.0,0.0,0.0,0.0,0.0
1457888163633956292,1.19516086578,2.36662220955,0.0,0.0,0.0,0.0,0.0
1457888163635955541,1.19515550137,2.36662507057,0.0,0.0,0.0,0.0,0.0
1457888163637968193,1.19515180588,2.36662697792,0.0,0.0,0.0,0.0,0.0
1457888163640027952,1.19514930248,2.36662793159,0.0,0.0,0.0,0.0,0.0
1457888163641978479,1.19514763355,2.36662888527,0.0,0.0,0.0,0.0,0.0
1457888163643940308,1.20445275307,2.38268184662,0.0,0.0,0.0,0.0,0.0
1457888163645942594,1.20771336555,2.38898348808,0.0,0.0,0.0,0.0,0.0
1457888163647909353,1.20875489712,2.39149832726,0.0,0.0,0.0,0.0,0.0
1457888163649900836,1.20901286602,2.39252948761,0.0,0.0,0.0,0.0,0.0
1457888163651933409,1.20901489258,2.39297103882,0.0,0.0,0.0,0.0,0.0
1457888163653841056,1.20894885063,2.3931722641,0.0,0.0,0.0,0.0,0.0
1457888163655911439,1.20887768269,2.39327144623,0.0,0.0,0.0,0.0,0.0
1457888163657861174,1.20881867409,2.39332461357,0.0,0.0,0.0,0.0,0.0
1457888163659964949,1.20877432823,2.39335536957,0.0,0.0,0.0,0.0,0.0
1457888163661966232,1.20874249935,2.39337420464,0.0,0.0,0.0,0.0,0.0
1457888163663903711,1.20491170883,2.39540815353,0.0,0.0,0.0,0.0,0.0
1457888163665885940,1.20225763321,2.39675116539,0.0,0.0,0.0,0.0,0.0
1457888163667904233,1.20041656494,2.39765524864,0.0,0.0,0.0,0.0,0.0
1457888163669917479,1.19914233685,2.39826989174,0.0,0.0,0.0,0.0,0.0
1457888163671907417,1.19826304913,2.39868950844,0.0,0.0,0.0,0.0,0.0
1457888163673892008,1.19765806198,2.39897680283,0.0,0.0,0.0,0.0,0.0
1457888163675927776,1.21262443066,2.42600011826,0.0,0.0,0.0,0.0,0.0
1457888163677897903,1.21772420406,2.43666267395,0.0,0.0,0.0,0.0,0.0
1457888163680035325,1.21924674511,2.4409532547,0.0,0.0,0.0,0.0,0.0
1457888163681928789,1.2195379734,2.442735672,0.0,0.0,0.0,0.0,0.0
1457888163683919535,1.21561634541,2.44552230835,0.0,0.0,0.0,0.0,0.0
1457888163685899440,1.21277546883,2.44721984863,0.0,0.0,0.0,0.0,0.0
1457888163687929866,1.21074950695,2.44830918312,0.0,0.0,0.0,0.0,0.0
1457888163689913002,1.20932078362,2.44903159142,0.0,0.0,0.0,0.0,0.0
1457888163691932367,1.20832073689,2.44951963425,0.0,0.0,0.0,0.0,0.0
1457888163693929029,1.20762455463,2.449852705,0.0,0.0,0.0,0.0,0.0
1457888163695914120,1.2071416378,2.45008087158,0.0,0.0,0.0,0.0,0.0
1457888163697911247,1.20680749416,2.45023798943,0.0,0.0,0.0,0.0,0.0
1457888163699922993,1.20657670498,2.45034575462,0.0,0.0,0.0,0.0,0.0
1457888163701863785,1.20641756058,2.45042014122,0.0,0.0,0.0,0.0,0.0
1457888163703904450,1.20630788803,2.45047140121,0.0,0.0,0.0,0.0,0.0
1457888163705914381,1.21648061275,2.47304368019,0.0,0.0,0.0,0.0,0.0
1457888163707932110,1.21932959557,2.48218417168,0.0,0.0,0.0,0.0,0.0
1457888163709846156,1.21970939636,2.48601818085,0.0,0.0,0.0,0.0,0.0
1457888163711875427,1.21936416626,2.48771572113,0.0,0.0,0.0,0.0,0.0
1457888163713989130,1.21889042854,2.48852491379,0.0,0.0,0.0,0.0,0.0
1457888163715893243,1.21847105026,2.48894548416,0.0,0.0,0.0,0.0,0.0
1457888163717927462,1.21814477444,2.4891834259,0.0,0.0,0.0,0.0,0.0
1457888163719931728,1.21790468693,2.48932814598,0.0,0.0,0.0,0.0,0.0
1457888163721848905,1.21773278713,2.48942089081,0.0,0.0,0.0,0.0,0.0
1457888163723891234,1.21761143208,2.48948216438,0.0,0.0,0.0,0.0,0.0
1457888163725919516,1.2117382288,2.49250531197,0.0,0.0,0.0,0.0,0.0
1457888163727936224,1.20763206482,2.49451446533,0.0,0.0,0.0,0.0,0.0
1457888163729880041,1.20474731922,2.49588108063,0.0,0.0,0.0,0.0,0.0
1457888163731898486,1.20272302628,2.49682164192,0.0,0.0,0.0,0.0,0.0
1457888163733856778,1.20130681992,2.49747228622,0.0,0.0,0.0,0.0,0.0
1457888163735870620,1.20031905174,2.49792289734,0.0,0.0,0.0,0.0,0.0
1457888163737888766,1.20865285397,2.51444959641,0.0,0.0,0.0,0.0,0.0
1457888163739891164,1.21132564545,2.52102446556,0.0,0.0,0.0,0.0,0.0
1457888163741996394,1.21198773384,2.52370977402,0.0,0.0,0.0,0.0,0.0
1457888163743912192,1.21199071407,2.5248529911,0.0,0.0,0.0,0.0,0.0
1457888163745967776,1.209867239,2.52635955811,0.0,0.0,0.0,0.0,0.0
1457888163747875165,1.20830869675,2.52727365494,0.0,0.0,0.0,0.0,0.0
1457888163749912640,1.20718979836,2.52785921097,0.0,0.0,0.0,0.0,0.0
1457888163751960275,1.20639681816,2.52824759483,0.0,0.0,0.0,0.0,0.0
1457888163753853050,1.20583927631,2.52851033211,0.0,0.0,0.0,0.0,0.0
1457888163755869296,1.20544946194,2.52869057655,0.0,0.0,0.0,0.0,0.0
1457888163757903375,1.20517742634,2.52881455421,0.0,0.0,0.0,0.0,0.0
1457888163759852950,1.2049882412,2.5289003849,0.0,0.0,0.0,0.0,0.0
1457888163761885214,1.20485687256,2.52895975113,0.0,0.0,0.0,0.0,0.0
1457888163763867957,1.20476567745,2.52900075912,0.0,0.0,0.0,0.0,0.0
1457888163765903659,1.20470249653,2.52902913094,0.0,0.0,0.0,0.0,0.0
1457888163767879159,1.19878768921,2.5320122242,0.0,0.0,0.0,0.0,0.0
1457888163769908557,1.20653867722,2.55567741394,0.0,0.0,0.0,0.0,0.0
1457888163771895304,1.20774960518,2.56553244591,0.0,0.0,0.0,0.0,0.0
1457888163773853730,1.20699477196,2.56985044479,0.0,0.0,0.0,0.0,0.0
1457888163775891832,1.20585405827,2.57188200951,0.0,0.0,0.0,0.0,0.0
1457888163777872963,1.2048201561,2.57292413712,0.0,0.0,0.0,0.0,0.0
1457888163779853040,1.20400595665,2.57350802422,0.0,0.0,0.0,0.0,0.0
1457888163781926175,1.20340144634,2.57386064529,0.0,0.0,0.0,0.0,0.0
1457888163783906378,1.20296549797,2.57408547401,0.0,0.0,0.0,0.0,0.0
1457888163785929503,1.20265603065,2.57423424721,0.0,0.0,0.0,0.0,0.0
1457888163787884330,1.20046699047,2.57531356812,0.0,0.0,0.0,0.0,0.0
1457888163789931992,1.19892239571,2.57603621483,0.0,0.0,0.0,0.0,0.0
1457888163791906070,1.19783508778,2.57652950287,0.0,0.0,0.0,0.0,0.0
1457888163793897820,1.19707202911,2.57686972618,0.0,0.0,0.0,0.0,0.0
1457888163795909380,1.19653785229,2.57710552216,0.0,0.0,0.0,0.0,0.0
1457888163797870925,1.19616472721,2.57726931572,0.0,0.0,0.0,0.0,0.0
1457888163799862610,1.20477449894,2.59368371964,0.0,0.0,0.0,0.0,0.0
1457888163801877198,1.207670331,2.60015869141,0.0,0.0,0.0,0.0,0.0
1457888163803868247,1.20849561691,2.60276675224,0.0,0.0,0.0,0.0,0.0
1457888163805936672,1.20861387253,2.60385346413,0.0,0.0,0.0,0.0,0.0
1457888163807872883,1.20653808117,2.60530781746,0.0,0.0,0.0,0.0,0.0
1457888163809938299,1.2050037384,2.60618710518,0.0,0.0,0.0,0.0,0.0
1457888163811908701,1.2038949728,2.60675048828,0.0,0.0,0.0,0.0,0.0
1457888163813887839,1.20310401917,2.60712552071,0.0,0.0,0.0,0.0,0.0
1457888163815912825,1.20254421234,2.60738062859,0.0,0.0,0.0,0.0,0.0
1457888163817869891,1.20215010643,2.60755634308,0.0,0.0,0.0,0.0,0.0
1457888163819845607,1.20187330246,2.60767817497,0.0,0.0,0.0,0.0,0.0
1457888163821881707,1.20167958736,2.60776281357,0.0,0.0,0.0,0.0,0.0
1457888163823896561,1.2015440464,2.60782194138,0.0,0.0,0.0,0.0,0.0
1457888163825882251,1.20144951344,2.60786318779,0.0,0.0,0.0,0.0,0.0
1457888163827874294,1.20138347149,2.60789179802,0.0,0.0,0.0,0.0,0.0
1457888163829926093,1.20133733749,2.60791182518,0.0,0.0,0.0,0.0,0.0
1457888163831929605,1.20718383789,2.61881184578,0.0,0.0,0.0,0.0,0.0
1457888163833894504,1.20920288563,2.62308979034,0.0,0.0,0.0,0.0,0.0
1457888163835875281,1.20981967449,2.62479877472,0.0,0.0,0.0,0.0,0.0
1457888163837850376,1.20994603634,2.62550210953,0.0,0.0,0.0,0.0,0.0
1457888163839852256,1.20991683006,2.62580561638,0.0,0.0,0.0,0.0,0.0
1457888163841933016,1.20985090733,2.6259458065,0.0,0.0,0.0,0.0,0.0
1457888163843887707,1.20978713036,2.6260163784,0.0,0.0,0.0,0.0,0.0
1457888163845891504,1.20973551273,2.62605524063,0.0,0.0,0.0,0.0,0.0
1457888163847842044,1.20969665051,2.62607836723,0.0,0.0,0.0,0.0,0.0
1457888163849940479,1.2096683979,2.62609314919,0.0,0.0,0.0,0.0,0.0
1457888163851910161,1.20964813232,2.62610268593,0.0,0.0,0.0,0.0,0.0
1457888163853898260,1.20963382721,2.62610936165,0.0,0.0,0.0,0.0,0.0
1457888163855886938,1.20962369442,2.6261138916,0.0,0.0,0.0,0.0,0.0
1457888163857870799,1.20961654186,2.62611722946,0.0,0.0,0.0,0.0,0.0
1457888163859871022,1.20961153507,2.62611937523,0.0,0.0,0.0,0.0,0.0
1457888163861877444,1.209608078,2.62612080574,0.0,0.0,0.0,0.0,0.0
1457888163863899491,1.20374786854,2.61522507668,0.0,0.0,0.0,0.0,0.0
1457888163865892613,1.20170295238,2.61095905304,0.0,0.0,0.0,0.0,0.0
1457888163867885957,1.20106291771,2.60926032066,0.0,0.0,0.0,0.0,0.0
1457888163869951240,1.19695556164,2.61050677299,0.0,0.0,0.0,0.0,0.0
1457888163871867917,1.19416999817,2.61150455475,0.0,0.0,0.0,0.0,0.0
1457888163873861792,1.19224476814,2.61225342751,0.0,0.0,0.0,0.0,0.0
1457888163875893564,1.19090354443,2.61279797554,0.0,0.0,0.0,0.0,0.0
1457888163877862549,1.1899664402,2.61318707466,0.0,0.0,0.0,0.0,0.0
1457888163879877808,1.18931138515,2.6134622097,0.0,0.0,0.0,0.0,0.0
1457888163881866419,1.18885374069,2.61365580559,0.0,0.0,0.0,0.0,0.0
1457888163883906447,1.18853437901,2.61379122734,0.0,0.0,0.0,0.0,0.0
1457888163885889041,1.18831181526,2.61388587952,0.0,0.0,0.0,0.0,0.0
